{"meta":{"code":200,"requestId":"5a8b8fa44434b97539661f52"},"response":{"venues":[{"id":"582384b487dde5055f3a58e3","name":"Eataly Boston","contact":{"phone":"6178077300","formattedPhone":"(617) 807-7300","twitter":"eatalyboston"},"location":{"address":"800 Boylston St","crossStreet":"Prudential Center","lat":42.347732494306854,"lng":-71.08230724330704,"labeledLatLngs":[{"label":"display","lat":42.347732494306854,"lng":-71.08230724330704}],"distance":3808,"postalCode":"02199","cc":"US","city":"Boston","state":"MA","country":"United States","formattedAddress":["800 Boylston St (Prudential Center)","Boston, MA 02199","United States"]},"categories":[{"id":"50be8ee891d4fa8dcc7199a7","name":"Market","pluralName":"Markets","shortName":"Market","icon":{"prefix":"https:\/\/ss3.4sqi.net\/img\/categories_v2\/shops\/market_","suffix":".png"},"primary":true}],"verified":false,"stats":{"checkinsCount":5667,"usersCount":3183,"tipCount":37},"url":"https:\/\/www.eataly.com\/us_en\/stores\/boston\/boston-restaurants\/","allowMenuUrlEdit":true,"beenHere":{"lastCheckinExpiredAt":0},"specials":{"count":0,"items":[]},"referralId":"v-1519095716","venueChains":[],"hasPerk":false},{"id":"4a1b3cd9f964a520db7a1fe3","name":"Quincy Market","contact":{"phone":"6175231300","formattedPhone":"(617) 523-1300","twitter":"faneuilhall","facebook":"167220526389","facebookUsername":"FaneuilHallMarketplace","facebookName":"Faneuil Hall Marketplace"},"location":{"address":"1 Faneuil Hall Sq","crossStreet":"btwn Clinton & Chatham","lat":42.360203268141966,"lng":-71.05481715922633,"distance":1467,"postalCode":"02109","cc":"US","city":"Boston","state":"MA","country":"United States","formattedAddress":["1 Faneuil Hall Sq (btwn Clinton & Chatham)","Boston, MA 02109","United States"]},"categories":[{"id":"4deefb944765f83613cdba6e","name":"Historic Site","pluralName":"Historic Sites","shortName":"Historic Site","icon":{"prefix":"https:\/\/ss3.4sqi.net\/img\/categories_v2\/arts_entertainment\/historicsite_","suffix":".png"},"primary":true}],"verified":false,"stats":{"checkinsCount":68921,"usersCount":50976,"tipCount":296},"url":"http:\/\/www.quincy-market.com","allowMenuUrlEdit":true,"beenHere":{"lastCheckinExpiredAt":0},"specials":{"count":0,"items":[]},"referralId":"v-1519095716","venueChains":[],"hasPerk":false},{"id":"4a1c8f08f964a5204f7b1fe3","name":"Whole Foods Market","contact":{"phone":"6177230004","formattedPhone":"(617) 723-0004","twitter":"wholefoodscrp","facebook":"118045483712","facebookUsername":"WFMCharlesRiverPlaza","facebookName":"Whole Foods Market Charles River Plaza BOSTON"},"location":{"address":"181 Cambridge St","lat":42.36167008231551,"lng":-71.06579726169146,"labeledLatLngs":[{"label":"display","lat":42.36167008231551,"lng":-71.06579726169146}],"distance":1747,"postalCode":"02114","cc":"US","city":"Boston","state":"MA","country":"United States","formattedAddress":["181 Cambridge St","Boston, MA 02114","United States"]},"categories":[{"id":"4bf58dd8d48988d118951735","name":"Grocery Store","pluralName":"Grocery Stores","shortName":"Grocery Store","icon":{"prefix":"https:\/\/ss3.4sqi.net\/img\/categories_v2\/shops\/food_grocery_","suffix":".png"},"primary":true}],"verified":true,"stats":{"checkinsCount":20951,"usersCount":4661,"tipCount":52},"url":"http:\/\/www.wholefoodsmarket.com\/stores\/charlesriver","allowMenuUrlEdit":true,"beenHere":{"lastCheckinExpiredAt":0},"specials":{"count":0,"items":[]},"storeId":"CRP","referralId":"v-1519095716","venueChains":[{"id":"556cdf5baceaff43eb042df6"}],"hasPerk":false},{"id":"534ed00c498e95d50e57cd05","name":"Thinking Cup","contact":{"phone":"6172473333","formattedPhone":"(617) 247-3333","twitter":"thinkingcup","facebook":"102356233150626","facebookUsername":"thinkingcup","facebookName":"The Thinking Cup"},"location":{"address":"85 Newbury St","crossStreet":"at Berkeley St","lat":42.35165311712419,"lng":-71.07488447907639,"labeledLatLngs":[{"label":"display","lat":42.35165311712419,"lng":-71.07488447907639}],"distance":3079,"postalCode":"02116","cc":"US","city":"Boston","state":"MA","country":"United States","formattedAddress":["85 Newbury St (at Berkeley St)","Boston, MA 02116","United States"]},"categories":[{"id":"4bf58dd8d48988d1e0931735","name":"Coffee Shop","pluralName":"Coffee Shops","shortName":"Coffee Shop","icon":{"prefix":"https:\/\/ss3.4sqi.net\/img\/categories_v2\/food\/coffeeshop_","suffix":".png"},"primary":true}],"verified":false,"stats":{"checkinsCount":7535,"usersCount":3506,"tipCount":120},"url":"http:\/\/thinkingcup.com","menu":{"type":"Menu","label":"Menu","anchor":"View Menu","url":"http:\/\/thinkingcup.com\/#menustc","mobileUrl":"http:\/\/thinkingcup.com\/#menustc","externalUrl":"http:\/\/thinkingcup.com\/#menustc"},"allowMenuUrlEdit":true,"beenHere":{"lastCheckinExpiredAt":0},"specials":{"count":0,"items":[]},"referralId":"v-1519095716","venueChains":[],"hasPerk":false},{"id":"4a223506f964a520697d1fe3","name":"Boston Park Plaza","contact":{"phone":"6174262000","formattedPhone":"(617) 426-2000","twitter":"bostonparkplaza","facebook":"142683612465124","facebookUsername":"BostonParkPlazaHotel","facebookName":"Boston Park Plaza"},"location":{"address":"50 Park Plz","crossStreet":"at Arlington St","lat":42.35070075443437,"lng":-71.06993020555723,"labeledLatLngs":[{"label":"display","lat":42.35070075443437,"lng":-71.06993020555723}],"distance":2930,"postalCode":"02116","cc":"US","city":"Boston","state":"MA","country":"United States","formattedAddress":["50 Park Plz (at Arlington St)","Boston, MA 02116","United States"]},"categories":[{"id":"4bf58dd8d48988d1fa931735","name":"Hotel","pluralName":"Hotels","shortName":"Hotel","icon":{"prefix":"https:\/\/ss3.4sqi.net\/img\/categories_v2\/travel\/hotel_","suffix":".png"},"primary":true}],"verified":true,"stats":{"checkinsCount":24183,"usersCount":12190,"tipCount":176},"url":"http:\/\/bostonparkplaza.com","allowMenuUrlEdit":true,"beenHere":{"lastCheckinExpiredAt":0},"specials":{"count":0,"items":[]},"venuePage":{"id":"33263092"},"storeId":"","referralId":"v-1519095716","venueChains":[{"id":"57470b83498e964e62175039"}],"hasPerk":false},{"id":"52af405f498e9cc9d709e73c","name":"Tatte Bakery & Café","contact":{"phone":"6175771111","formattedPhone":"(617) 577-1111"},"location":{"address":"101 Main St","crossStreet":"Broad Canal Way","lat":42.3619937174182,"lng":-71.08153751860365,"labeledLatLngs":[{"label":"display","lat":42.3619937174182,"lng":-71.08153751860365}],"distance":2780,"postalCode":"02142","cc":"US","city":"Cambridge","state":"MA","country":"United States","formattedAddress":["101 Main St (Broad Canal Way)","Cambridge, MA 02142","United States"]},"categories":[{"id":"4bf58dd8d48988d16a941735","name":"Bakery","pluralName":"Bakeries","shortName":"Bakery","icon":{"prefix":"https:\/\/ss3.4sqi.net\/img\/categories_v2\/food\/bakery_","suffix":".png"},"primary":true}],"verified":false,"stats":{"checkinsCount":1502,"usersCount":556,"tipCount":9},"hasMenu":true,"menu":{"type":"Menu","label":"Menu","anchor":"View Menu","url":"https:\/\/foursquare.com\/v\/tatte-bakery--caf%C3%A9\/52af405f498e9cc9d709e73c\/menu","mobileUrl":"https:\/\/foursquare.com\/v\/52af405f498e9cc9d709e73c\/device_menu"},"allowMenuUrlEdit":true,"beenHere":{"lastCheckinExpiredAt":0},"specials":{"count":0,"items":[]},"referralId":"v-1519095716","venueChains":[],"hasPerk":false},{"id":"55e0c3d7498ec10bc1501534","name":"Jaho Coffee Roaster & Wine Bar","contact":{"phone":"8572334094","formattedPhone":"(857) 233-4094","twitter":"jahocoffee","facebook":"115108202264","facebookUsername":"jahocoffee","facebookName":"Jaho Coffee & Tea"},"location":{"address":"665 Washington St","lat":42.35171982555742,"lng":-71.06281959073598,"labeledLatLngs":[{"label":"display","lat":42.35171982555742,"lng":-71.06281959073598}],"distance":2564,"postalCode":"02111","cc":"US","city":"Boston","state":"MA","country":"United States","formattedAddress":["665 Washington St","Boston, MA 02111","United States"]},"categories":[{"id":"4bf58dd8d48988d1e0931735","name":"Coffee Shop","pluralName":"Coffee Shops","shortName":"Coffee Shop","icon":{"prefix":"https:\/\/ss3.4sqi.net\/img\/categories_v2\/food\/coffeeshop_","suffix":".png"},"primary":true}],"verified":true,"stats":{"checkinsCount":3171,"usersCount":1119,"tipCount":36},"url":"http:\/\/www.jaho.com","allowMenuUrlEdit":true,"beenHere":{"lastCheckinExpiredAt":0},"specials":{"count":0,"items":[]},"referralId":"v-1519095716","venueChains":[],"hasPerk":false},{"id":"4acbf0eaf964a52065c820e3","name":"The Cheesecake Factory","contact":{"phone":"6173997777","formattedPhone":"(617) 399-7777","twitter":"cheesecake","facebook":"106628409154","facebookUsername":"thecheesecakefactory","facebookName":"The Cheesecake Factory"},"location":{"address":"115 Huntington Ave","crossStreet":"at Belvidere St","lat":42.34575863777125,"lng":-71.08191867450732,"labeledLatLngs":[{"label":"display","lat":42.34575863777125,"lng":-71.08191867450732}],"distance":3954,"postalCode":"02199","cc":"US","city":"Boston","state":"MA","country":"United States","formattedAddress":["115 Huntington Ave (at Belvidere St)","Boston, MA 02199","United States"]},"categories":[{"id":"4bf58dd8d48988d14e941735","name":"American Restaurant","pluralName":"American Restaurants","shortName":"American","icon":{"prefix":"https:\/\/ss3.4sqi.net\/img\/categories_v2\/food\/default_","suffix":".png"},"primary":true}],"verified":true,"stats":{"checkinsCount":20582,"usersCount":13308,"tipCount":163},"url":"http:\/\/www.thecheesecakefactory.com\/","hasMenu":true,"menu":{"type":"Menu","label":"Menu","anchor":"View Menu","url":"https:\/\/foursquare.com\/v\/the-cheesecake-factory\/4acbf0eaf964a52065c820e3\/menu","mobileUrl":"https:\/\/foursquare.com\/v\/4acbf0eaf964a52065c820e3\/device_menu"},"allowMenuUrlEdit":true,"beenHere":{"lastCheckinExpiredAt":0},"specials":{"count":0,"items":[]},"referralId":"v-1519095716","venueChains":[{"id":"556a4b41a7c8957d73d67d96"}],"hasPerk":false},{"id":"49f4d3e6f964a5205b6b1fe3","name":"Whole Foods Market","contact":{"phone":"6174920070","formattedPhone":"(617) 492-0070","twitter":"wfm_prospectst","facebook":"82945991913","facebookUsername":"WFMProspectSt","facebookName":"Whole Foods Market Prospect Street"},"location":{"address":"115 Prospect St","crossStreet":"at Harvard St.","lat":42.367936923162006,"lng":-71.10225355308789,"labeledLatLngs":[{"label":"display","lat":42.367936923162006,"lng":-71.10225355308789}],"distance":4232,"postalCode":"02139","cc":"US","city":"Cambridge","state":"MA","country":"United States","formattedAddress":["115 Prospect St (at Harvard St.)","Cambridge, MA 02139","United States"]},"categories":[{"id":"4bf58dd8d48988d118951735","name":"Grocery Store","pluralName":"Grocery Stores","shortName":"Grocery Store","icon":{"prefix":"https:\/\/ss3.4sqi.net\/img\/categories_v2\/shops\/food_grocery_","suffix":".png"},"primary":true}],"verified":true,"stats":{"checkinsCount":8888,"usersCount":2216,"tipCount":19},"url":"http:\/\/www.wholefoodsmarket.com\/stores\/cambridge","allowMenuUrlEdit":true,"beenHere":{"lastCheckinExpiredAt":0},"specials":{"count":0,"items":[]},"storeId":"CAM","referralId":"v-1519095716","venueChains":[{"id":"556cdf5baceaff43eb042df6"}],"hasPerk":false},{"id":"51f90946498e7e4b05685dff","name":"Whole Foods Market","contact":{"phone":"6173379700","formattedPhone":"(617) 337-9700","twitter":"wfmcharlestown","facebook":"24922591487","facebookUsername":"WholeFoods","facebookName":"Whole Foods Market"},"location":{"address":"51 Austin Street","lat":42.375511467008394,"lng":-71.06597642037609,"labeledLatLngs":[{"label":"display","lat":42.375511467008394,"lng":-71.06597642037609}],"distance":1238,"postalCode":"02129","cc":"US","city":"Charlestown","state":"MA","country":"United States","formattedAddress":["51 Austin Street","Charlestown, MA 02129","United States"]},"categories":[{"id":"4bf58dd8d48988d118951735","name":"Grocery Store","pluralName":"Grocery Stores","shortName":"Grocery Store","icon":{"prefix":"https:\/\/ss3.4sqi.net\/img\/categories_v2\/shops\/food_grocery_","suffix":".png"},"primary":true}],"verified":true,"stats":{"checkinsCount":4564,"usersCount":733,"tipCount":18},"url":"http:\/\/www.wholefoodsmarket.com\/stores\/charlestown","allowMenuUrlEdit":true,"beenHere":{"lastCheckinExpiredAt":0},"specials":{"count":0,"items":[]},"storeId":"CHA","referralId":"v-1519095716","venueChains":[{"id":"556cdf5baceaff43eb042df6"}],"hasPerk":false},{"id":"50f170f7e4b060b671f761ea","name":"Flour Bakery + Cafe","contact":{"phone":"6174377700","formattedPhone":"(617) 437-7700","twitter":"flourbakerycafe","facebook":"160143804024972","facebookUsername":"flourbakerycafe","facebookName":"Flour Bakery+Cafe"},"location":{"address":"131 Clarendon St","lat":42.34828947156887,"lng":-71.07354170294468,"labeledLatLngs":[{"label":"display","lat":42.34828947156887,"lng":-71.07354170294468}],"distance":3316,"postalCode":"02116","cc":"US","city":"Boston","state":"MA","country":"United States","formattedAddress":["131 Clarendon St","Boston, MA 02116","United States"]},"categories":[{"id":"4bf58dd8d48988d16a941735","name":"Bakery","pluralName":"Bakeries","shortName":"Bakery","icon":{"prefix":"https:\/\/ss3.4sqi.net\/img\/categories_v2\/food\/bakery_","suffix":".png"},"primary":true}],"verified":false,"stats":{"checkinsCount":11822,"usersCount":5215,"tipCount":179},"url":"http:\/\/flourbakery.com","allowMenuUrlEdit":true,"beenHere":{"lastCheckinExpiredAt":0},"specials":{"count":0,"items":[]},"referralId":"v-1519095716","venueChains":[],"hasPerk":false},{"id":"522605b311d26c352ac55248","name":"Whole Foods Market","contact":{"phone":"6179029300","formattedPhone":"(617) 902-9300","twitter":"wfm_somerville","facebook":"24922591487","facebookUsername":"WholeFoods","facebookName":"Whole Foods Market"},"location":{"address":"45 Beacon Street","lat":42.37587944643724,"lng":-71.10318421812849,"labeledLatLngs":[{"label":"display","lat":42.37587944643724,"lng":-71.10318421812849}],"distance":4280,"postalCode":"02143","cc":"US","city":"Somerville","state":"MA","country":"United States","formattedAddress":["45 Beacon Street","Somerville, MA 02143","United States"]},"categories":[{"id":"4bf58dd8d48988d118951735","name":"Grocery Store","pluralName":"Grocery Stores","shortName":"Grocery Store","icon":{"prefix":"https:\/\/ss3.4sqi.net\/img\/categories_v2\/shops\/food_grocery_","suffix":".png"},"primary":true}],"verified":true,"stats":{"checkinsCount":4350,"usersCount":982,"tipCount":9},"url":"http:\/\/www.wholefoodsmarket.com\/stores\/somerville","allowMenuUrlEdit":true,"beenHere":{"lastCheckinExpiredAt":0},"specials":{"count":0,"items":[]},"storeId":"SMV","referralId":"v-1519095716","venueChains":[{"id":"556cdf5baceaff43eb042df6"}],"hasPerk":false},{"id":"4aa94396f964a520c15220e3","name":"Whole Foods Market","contact":{"phone":"6173751010","formattedPhone":"(617) 375-1010","twitter":"wfm_symphony","facebook":"93466403369","facebookUsername":"WFMSymphony","facebookName":"Whole Foods Market- Symphony"},"location":{"address":"15 Westland Ave","crossStreet":"at Edgerly Rd.","lat":42.34364961607414,"lng":-71.08690933519415,"labeledLatLngs":[{"label":"display","lat":42.34364961607414,"lng":-71.08690933519415}],"distance":4399,"postalCode":"02115","cc":"US","city":"Boston","state":"MA","country":"United States","formattedAddress":["15 Westland Ave (at Edgerly Rd.)","Boston, MA 02115","United States"]},"categories":[{"id":"4bf58dd8d48988d118951735","name":"Grocery Store","pluralName":"Grocery Stores","shortName":"Grocery Store","icon":{"prefix":"https:\/\/ss3.4sqi.net\/img\/categories_v2\/shops\/food_grocery_","suffix":".png"},"primary":true}],"verified":true,"stats":{"checkinsCount":13473,"usersCount":3170,"tipCount":43},"url":"http:\/\/www.wholefoodsmarket.com\/stores\/symphony","allowMenuUrlEdit":true,"beenHere":{"lastCheckinExpiredAt":0},"specials":{"count":0,"items":[]},"storeId":"SYM","referralId":"v-1519095716","venueChains":[{"id":"556cdf5baceaff43eb042df6"}],"hasPerk":false},{"id":"59a5f7dc5d0fea42bfe228e8","name":"Earls Kitchen + Bar","contact":{"phone":"8579570949","formattedPhone":"(857) 957-0949","twitter":"earlsrestaurant","instagram":"earlsprudential","facebook":"10880008178","facebookUsername":"earlsrestaurants","facebookName":"Earls Restaurants"},"location":{"address":"800 Boylston St","crossStreet":"Unit 107","lat":42.347798803331116,"lng":-71.08214832186395,"labeledLatLngs":[{"label":"display","lat":42.347798803331116,"lng":-71.08214832186395}],"distance":3794,"postalCode":"02199","cc":"US","city":"Boston","state":"MA","country":"United States","formattedAddress":["800 Boylston St (Unit 107)","Boston, MA 02199","United States"]},"categories":[{"id":"4bf58dd8d48988d14e941735","name":"American Restaurant","pluralName":"American Restaurants","shortName":"American","icon":{"prefix":"https:\/\/ss3.4sqi.net\/img\/categories_v2\/food\/default_","suffix":".png"},"primary":true}],"verified":false,"stats":{"checkinsCount":599,"usersCount":418,"tipCount":4},"url":"https:\/\/earls.ca\/locations\/prudential-center","menu":{"type":"Menu","label":"Menu","anchor":"View Menu","url":"https:\/\/earls.ca\/locations\/prudential-center\/menu\/kitchen","mobileUrl":"https:\/\/earls.ca\/locations\/prudential-center\/menu\/kitchen","externalUrl":"https:\/\/earls.ca\/locations\/prudential-center\/menu\/kitchen"},"allowMenuUrlEdit":true,"beenHere":{"lastCheckinExpiredAt":0},"specials":{"count":0,"items":[]},"referralId":"v-1519095716","venueChains":[],"hasPerk":false},{"id":"57585d08498e05c399ce0c3d","name":"George Howell Coffee","contact":{},"location":{"address":"505 Washington St","lat":42.354723387969685,"lng":-71.06144309666223,"labeledLatLngs":[{"label":"display","lat":42.354723387969685,"lng":-71.06144309666223}],"distance":2212,"postalCode":"02111","cc":"US","city":"Boston","state":"MA","country":"United States","formattedAddress":["505 Washington St","Boston, MA 02111","United States"]},"categories":[{"id":"4bf58dd8d48988d1e0931735","name":"Coffee Shop","pluralName":"Coffee Shops","shortName":"Coffee Shop","icon":{"prefix":"https:\/\/ss3.4sqi.net\/img\/categories_v2\/food\/coffeeshop_","suffix":".png"},"primary":true}],"verified":false,"stats":{"checkinsCount":1732,"usersCount":869,"tipCount":32},"allowMenuUrlEdit":true,"beenHere":{"lastCheckinExpiredAt":0},"specials":{"count":0,"items":[]},"referralId":"v-1519095716","venueChains":[],"hasPerk":false},{"id":"541dc4ef498e5af295858558","name":"Tatte Bakery & Cafe","contact":{"phone":"6173544200","formattedPhone":"(617) 354-4200"},"location":{"address":"318 Third Street","crossStreet":"Linskey Way","lat":42.36497832848713,"lng":-71.08284870648953,"labeledLatLngs":[{"label":"display","lat":42.36497832848713,"lng":-71.08284870648953}],"distance":2751,"postalCode":"02142","cc":"US","city":"Cambridge","state":"MA","country":"United States","formattedAddress":["318 Third Street (Linskey Way)","Cambridge, MA 02142","United States"]},"categories":[{"id":"4bf58dd8d48988d16d941735","name":"Café","pluralName":"Cafés","shortName":"Café","icon":{"prefix":"https:\/\/ss3.4sqi.net\/img\/categories_v2\/food\/cafe_","suffix":".png"},"primary":true}],"verified":false,"stats":{"checkinsCount":4068,"usersCount":1681,"tipCount":46},"url":"http:\/\/tattebakery.com","allowMenuUrlEdit":true,"beenHere":{"lastCheckinExpiredAt":0},"specials":{"count":0,"items":[]},"referralId":"v-1519095716","venueChains":[],"hasPerk":false},{"id":"4cb77f99035d236ad6f4c54e","name":"Life Alive","contact":{"phone":"6173545433","formattedPhone":"(617) 354-5433","twitter":"Lifealivecafe"},"location":{"address":"765 Massachusetts Ave","crossStreet":"at Inman St.","lat":42.366640289176246,"lng":-71.10563537054645,"labeledLatLngs":[{"label":"display","lat":42.366640289176246,"lng":-71.10563537054645}],"distance":4529,"postalCode":"02139","cc":"US","city":"Cambridge","state":"MA","country":"United States","formattedAddress":["765 Massachusetts Ave (at Inman St.)","Cambridge, MA 02139","United States"]},"categories":[{"id":"4bf58dd8d48988d1d3941735","name":"Vegetarian \/ Vegan Restaurant","pluralName":"Vegetarian \/ Vegan Restaurants","shortName":"Vegetarian \/ Vegan","icon":{"prefix":"https:\/\/ss3.4sqi.net\/img\/categories_v2\/food\/vegetarian_","suffix":".png"},"primary":true}],"verified":true,"stats":{"checkinsCount":12660,"usersCount":4201,"tipCount":184},"url":"http:\/\/lifealive.com","hasMenu":true,"menu":{"type":"Menu","label":"Menu","anchor":"View Menu","url":"https:\/\/foursquare.com\/v\/life-alive\/4cb77f99035d236ad6f4c54e\/menu","mobileUrl":"https:\/\/foursquare.com\/v\/4cb77f99035d236ad6f4c54e\/device_menu"},"allowMenuUrlEdit":true,"beenHere":{"lastCheckinExpiredAt":0},"specials":{"count":0,"items":[]},"venuePage":{"id":"95717510"},"referralId":"v-1519095716","venueChains":[],"hasPerk":false},{"id":"4a9d11fff964a520d53720e3","name":"Eastern Standard","contact":{"phone":"6175329100","formattedPhone":"(617) 532-9100","twitter":"ESKDboston"},"location":{"address":"528 Commonwealth Ave","crossStreet":"at Kenmore Square","lat":42.34863748066378,"lng":-71.09608386624225,"distance":4584,"postalCode":"02215","cc":"US","city":"Boston","state":"MA","country":"United States","formattedAddress":["528 Commonwealth Ave (at Kenmore Square)","Boston, MA 02215","United States"]},"categories":[{"id":"4bf58dd8d48988d14e941735","name":"American Restaurant","pluralName":"American Restaurants","shortName":"American","icon":{"prefix":"https:\/\/ss3.4sqi.net\/img\/categories_v2\/food\/default_","suffix":".png"},"primary":true}],"verified":true,"stats":{"checkinsCount":29919,"usersCount":12791,"tipCount":292},"url":"http:\/\/www.easternstandardboston.com","hasMenu":true,"menu":{"type":"Menu","label":"Menu","anchor":"View Menu","url":"https:\/\/foursquare.com\/v\/eastern-standard\/4a9d11fff964a520d53720e3\/menu","mobileUrl":"https:\/\/foursquare.com\/v\/4a9d11fff964a520d53720e3\/device_menu"},"allowMenuUrlEdit":true,"beenHere":{"lastCheckinExpiredAt":0},"specials":{"count":0,"items":[]},"venuePage":{"id":"91598435"},"referralId":"v-1519095716","venueChains":[],"hasPerk":false},{"id":"4a1b3febf964a520dd7a1fe3","name":"Mike's Pastry","contact":{"phone":"6177423050","formattedPhone":"(617) 742-3050","twitter":"MikesPastry","facebook":"120188411325903","facebookName":"Mike's Pastry Inc"},"location":{"address":"300 Hanover St","crossStreet":"btwn Parmenter & Prince St","lat":42.364194999697865,"lng":-71.0541787721313,"distance":1021,"postalCode":"02113","cc":"US","city":"Boston","state":"MA","country":"United States","formattedAddress":["300 Hanover St (btwn Parmenter & Prince St)","Boston, MA 02113","United States"]},"categories":[{"id":"5744ccdfe4b0c0459246b4e2","name":"Pastry Shop","pluralName":"Pastry Shops","shortName":"Pastry","icon":{"prefix":"https:\/\/ss3.4sqi.net\/img\/categories_v2\/food\/dessert_","suffix":".png"},"primary":true}],"verified":false,"stats":{"checkinsCount":37522,"usersCount":29081,"tipCount":537},"url":"http:\/\/www.mikespastry.com\/","hasMenu":true,"menu":{"type":"Menu","label":"Menu","anchor":"View Menu","url":"https:\/\/foursquare.com\/v\/mikes-pastry\/4a1b3febf964a520dd7a1fe3\/menu","mobileUrl":"https:\/\/foursquare.com\/v\/4a1b3febf964a520dd7a1fe3\/device_menu"},"allowMenuUrlEdit":true,"beenHere":{"lastCheckinExpiredAt":0},"specials":{"count":0,"items":[]},"referralId":"v-1519095716","venueChains":[],"hasPerk":false},{"id":"40b28c80f964a52007f81ee3","name":"Club Cafe","contact":{"phone":"6175360966","formattedPhone":"(617) 536-0966","twitter":"ClubCafeBoston"},"location":{"address":"209 Columbus Ave","crossStreet":"at Berkeley St.","lat":42.348474552532686,"lng":-71.07231080532074,"labeledLatLngs":[{"label":"display","lat":42.348474552532686,"lng":-71.07231080532074}],"distance":3243,"postalCode":"02116","cc":"US","city":"Boston","state":"MA","country":"United States","formattedAddress":["209 Columbus Ave (at Berkeley St.)","Boston, MA 02116","United States"]},"categories":[{"id":"4bf58dd8d48988d1d8941735","name":"Gay Bar","pluralName":"Gay Bars","shortName":"Gay Bar","icon":{"prefix":"https:\/\/ss3.4sqi.net\/img\/categories_v2\/nightlife\/gaybar_","suffix":".png"},"primary":true}],"verified":false,"stats":{"checkinsCount":16885,"usersCount":5251,"tipCount":64},"url":"http:\/\/www.clubcafe.com","hasMenu":true,"menu":{"type":"Menu","label":"Menu","anchor":"View Menu","url":"https:\/\/foursquare.com\/v\/club-cafe\/40b28c80f964a52007f81ee3\/menu","mobileUrl":"https:\/\/foursquare.com\/v\/40b28c80f964a52007f81ee3\/device_menu"},"allowMenuUrlEdit":true,"beenHere":{"lastCheckinExpiredAt":0},"specials":{"count":0,"items":[]},"referralId":"v-1519095716","venueChains":[],"hasPerk":false},{"id":"4a7f3917f964a52054f31fe3","name":"Starbucks","contact":{"phone":"6173545471","formattedPhone":"(617) 354-5471","twitter":"starbucks","instagram":"starbucks","facebook":"22092443056","facebookUsername":"Starbucks","facebookName":"Starbucks"},"location":{"address":"655 Massachussets Ave","crossStreet":"at Prospect St","lat":42.36553114,"lng":-71.1037332,"labeledLatLngs":[{"label":"display","lat":42.36553114,"lng":-71.1037332}],"distance":4397,"postalCode":"02139","cc":"US","city":"Cambridge","state":"MA","country":"United States","formattedAddress":["655 Massachussets Ave (at Prospect St)","Cambridge, MA 02139","United States"]},"categories":[{"id":"4bf58dd8d48988d1e0931735","name":"Coffee Shop","pluralName":"Coffee Shops","shortName":"Coffee Shop","icon":{"prefix":"https:\/\/ss3.4sqi.net\/img\/categories_v2\/food\/coffeeshop_","suffix":".png"},"primary":true}],"verified":true,"stats":{"checkinsCount":12537,"usersCount":3488,"tipCount":31},"url":"http:\/\/www.starbucks.com\/store\/16078\/","menu":{"type":"Menu","label":"Menu","anchor":"View Menu","url":"http:\/\/www.starbucks.com\/menu","mobileUrl":"http:\/\/www.starbucks.com\/menu","externalUrl":"http:\/\/www.starbucks.com\/menu"},"allowMenuUrlEdit":true,"beenHere":{"lastCheckinExpiredAt":0},"specials":{"count":0,"items":[]},"storeId":"7338","referralId":"v-1519095716","venueChains":[{"id":"556f676fbd6a75a99038d8ec"}],"hasPerk":false},{"id":"528feaae11d20de9fd0955bd","name":"Row 34","contact":{"phone":"6175535900","formattedPhone":"(617) 553-5900","twitter":"row34"},"location":{"address":"383 Congress St","lat":42.34957002214383,"lng":-71.04721510915589,"labeledLatLngs":[{"label":"display","lat":42.34957002214383,"lng":-71.04721510915589}],"distance":2642,"postalCode":"02210","cc":"US","city":"Boston","state":"MA","country":"United States","formattedAddress":["383 Congress St","Boston, MA 02210","United States"]},"categories":[{"id":"4bf58dd8d48988d1ce941735","name":"Seafood Restaurant","pluralName":"Seafood Restaurants","shortName":"Seafood","icon":{"prefix":"https:\/\/ss3.4sqi.net\/img\/categories_v2\/food\/seafood_","suffix":".png"},"primary":true}],"verified":false,"stats":{"checkinsCount":6939,"usersCount":4215,"tipCount":151},"url":"http:\/\/row34.com","hasMenu":true,"menu":{"type":"Menu","label":"Menu","anchor":"View Menu","url":"https:\/\/foursquare.com\/v\/row-34\/528feaae11d20de9fd0955bd\/menu","mobileUrl":"https:\/\/foursquare.com\/v\/528feaae11d20de9fd0955bd\/device_menu"},"allowMenuUrlEdit":true,"beenHere":{"lastCheckinExpiredAt":0},"specials":{"count":0,"items":[]},"referralId":"v-1519095716","venueChains":[],"hasPerk":false},{"id":"40b28c80f964a52037f81ee3","name":"House of Blues","contact":{"phone":"8886932583","formattedPhone":"(888) 693-2583","twitter":"hobboston","facebook":"53789717545","facebookUsername":"HOBBoston","facebookName":"House of Blues Boston"},"location":{"address":"15 Lansdowne St","crossStreet":"btwn Brookline Ave. & Ipswich St.","lat":42.34720973424667,"lng":-71.09595039890698,"distance":4672,"postalCode":"02215","cc":"US","city":"Boston","state":"MA","country":"United States","formattedAddress":["15 Lansdowne St (btwn Brookline Ave. & Ipswich St.)","Boston, MA 02215","United States"]},"categories":[{"id":"4bf58dd8d48988d1e5931735","name":"Music Venue","pluralName":"Music Venues","shortName":"Music Venue","icon":{"prefix":"https:\/\/ss3.4sqi.net\/img\/categories_v2\/arts_entertainment\/musicvenue_","suffix":".png"},"primary":true}],"verified":true,"stats":{"checkinsCount":41933,"usersCount":20035,"tipCount":147},"url":"http:\/\/www.houseofblues.com\/boston","hasMenu":true,"menu":{"type":"Prices","label":"Prices","anchor":"View Prices","url":"https:\/\/foursquare.com\/v\/house-of-blues\/40b28c80f964a52037f81ee3\/menu","mobileUrl":"https:\/\/foursquare.com\/v\/40b28c80f964a52037f81ee3\/device_menu"},"allowMenuUrlEdit":true,"beenHere":{"lastCheckinExpiredAt":0},"specials":{"count":0,"items":[]},"venuePage":{"id":"39508200"},"storeId":"","referralId":"v-1519095716","venueChains":[],"hasPerk":false},{"id":"42829c80f964a5205e221fe3","name":"Starbucks","contact":{"phone":"6174500310","formattedPhone":"(617) 450-0310","twitter":"starbucks","instagram":"starbucks","facebook":"22092443056","facebookUsername":"Starbucks","facebookName":"Starbucks"},"location":{"address":"755 Boylston St","crossStreet":"btwn Fairfield & Exeter St","lat":42.349255,"lng":-71.08094,"labeledLatLngs":[{"label":"display","lat":42.349255,"lng":-71.08094}],"distance":3607,"postalCode":"02116","cc":"US","city":"Boston","state":"MA","country":"United States","formattedAddress":["755 Boylston St (btwn Fairfield & Exeter St)","Boston, MA 02116","United States"]},"categories":[{"id":"4bf58dd8d48988d1e0931735","name":"Coffee Shop","pluralName":"Coffee Shops","shortName":"Coffee Shop","icon":{"prefix":"https:\/\/ss3.4sqi.net\/img\/categories_v2\/food\/coffeeshop_","suffix":".png"},"primary":true}],"verified":true,"stats":{"checkinsCount":18947,"usersCount":7456,"tipCount":64},"url":"http:\/\/www.starbucks.com\/store\/16896\/","menu":{"type":"Menu","label":"Menu","anchor":"View Menu","url":"http:\/\/www.starbucks.com\/menu","mobileUrl":"http:\/\/www.starbucks.com\/menu","externalUrl":"http:\/\/www.starbucks.com\/menu"},"allowMenuUrlEdit":true,"beenHere":{"lastCheckinExpiredAt":0},"specials":{"count":0,"items":[]},"storeId":"7544","referralId":"v-1519095716","venueChains":[{"id":"556f676fbd6a75a99038d8ec"}],"hasPerk":false},{"id":"594036b7f193c07478f13117","name":"Explorateur","contact":{"twitter":"explorateurbos"},"location":{"address":"186 Tremont St","crossStreet":"Boylston St","lat":42.35249534443851,"lng":-71.06440401185203,"labeledLatLngs":[{"label":"display","lat":42.35249534443851,"lng":-71.06440401185203}],"distance":2537,"postalCode":"02111","cc":"US","city":"Boston","state":"MA","country":"United States","formattedAddress":["186 Tremont St (Boylston St)","Boston, MA 02111","United States"]},"categories":[{"id":"4bf58dd8d48988d16d941735","name":"Café","pluralName":"Cafés","shortName":"Café","icon":{"prefix":"https:\/\/ss3.4sqi.net\/img\/categories_v2\/food\/cafe_","suffix":".png"},"primary":true}],"verified":false,"stats":{"checkinsCount":457,"usersCount":329,"tipCount":6},"allowMenuUrlEdit":true,"beenHere":{"lastCheckinExpiredAt":0},"specials":{"count":0,"items":[]},"referralId":"v-1519095716","venueChains":[],"hasPerk":false},{"id":"4a282aaef964a520fb941fe3","name":"Starbucks","contact":{"phone":"6178590703","formattedPhone":"(617) 859-0703","twitter":"starbucks","instagram":"starbucks","facebook":"22092443056","facebookUsername":"Starbucks","facebookName":"Starbucks"},"location":{"address":"185 Dartmouth Street","crossStreet":"at Stuart St","lat":42.34854277,"lng":-71.07635113,"labeledLatLngs":[{"label":"display","lat":42.34854277,"lng":-71.07635113}],"distance":3426,"postalCode":"02116","cc":"US","city":"Boston","state":"MA","country":"United States","formattedAddress":["185 Dartmouth Street (at Stuart St)","Boston, MA 02116","United States"]},"categories":[{"id":"4bf58dd8d48988d1e0931735","name":"Coffee Shop","pluralName":"Coffee Shops","shortName":"Coffee Shop","icon":{"prefix":"https:\/\/ss3.4sqi.net\/img\/categories_v2\/food\/coffeeshop_","suffix":".png"},"primary":true}],"verified":true,"stats":{"checkinsCount":17324,"usersCount":4559,"tipCount":31},"url":"http:\/\/www.starbucks.com\/store\/14813\/","hasMenu":true,"menu":{"type":"Menu","label":"Menu","anchor":"View Menu","url":"http:\/\/www.starbucks.com\/menu","mobileUrl":"http:\/\/www.starbucks.com\/menu","externalUrl":"http:\/\/www.starbucks.com\/menu"},"allowMenuUrlEdit":true,"beenHere":{"lastCheckinExpiredAt":0},"specials":{"count":0,"items":[]},"storeId":"822","referralId":"v-1519095716","venueChains":[{"id":"556f676fbd6a75a99038d8ec"}],"hasPerk":false},{"id":"4c24a25eb7b8a59364b93ce8","name":"Flour Bakery + Cafe","contact":{"phone":"6172252525","formattedPhone":"(617) 225-2525","twitter":"jbchang","facebook":"160143804024972","facebookUsername":"flourbakerycafe","facebookName":"Flour Bakery+Cafe"},"location":{"address":"190 Massachusetts Ave","crossStreet":"at Albany St","lat":42.361025332089184,"lng":-71.09664648771286,"labeledLatLngs":[{"label":"display","lat":42.361025332089184,"lng":-71.09664648771286}],"distance":3967,"postalCode":"02139","cc":"US","city":"Cambridge","state":"MA","country":"United States","formattedAddress":["190 Massachusetts Ave (at Albany St)","Cambridge, MA 02139","United States"]},"categories":[{"id":"4bf58dd8d48988d16a941735","name":"Bakery","pluralName":"Bakeries","shortName":"Bakery","icon":{"prefix":"https:\/\/ss3.4sqi.net\/img\/categories_v2\/food\/bakery_","suffix":".png"},"primary":true}],"verified":false,"stats":{"checkinsCount":14267,"usersCount":6050,"tipCount":166},"url":"http:\/\/flourbakery.com","hasMenu":true,"menu":{"type":"Menu","label":"Menu","anchor":"View Menu","url":"https:\/\/foursquare.com\/v\/flour-bakery--cafe\/4c24a25eb7b8a59364b93ce8\/menu","mobileUrl":"https:\/\/foursquare.com\/v\/4c24a25eb7b8a59364b93ce8\/device_menu"},"allowMenuUrlEdit":true,"beenHere":{"lastCheckinExpiredAt":0},"specials":{"count":0,"items":[]},"referralId":"v-1519095716","venueChains":[],"hasPerk":false},{"id":"4cb12fa2c5e6a1cd90fedbf6","name":"Island Creek Oyster Bar","contact":{"phone":"6175325300","formattedPhone":"(617) 532-5300","twitter":"icobar"},"location":{"address":"500 Commonwealth Ave","crossStreet":"at Kenmore St","lat":42.348716394771,"lng":-71.09516322612762,"labeledLatLngs":[{"label":"display","lat":42.348716394771,"lng":-71.09516322612762}],"distance":4518,"postalCode":"02215","cc":"US","city":"Boston","state":"MA","country":"United States","formattedAddress":["500 Commonwealth Ave (at Kenmore St)","Boston, MA 02215","United States"]},"categories":[{"id":"4bf58dd8d48988d1ce941735","name":"Seafood Restaurant","pluralName":"Seafood Restaurants","shortName":"Seafood","icon":{"prefix":"https:\/\/ss3.4sqi.net\/img\/categories_v2\/food\/seafood_","suffix":".png"},"primary":true}],"verified":true,"stats":{"checkinsCount":14662,"usersCount":8733,"tipCount":289},"url":"http:\/\/www.islandcreekoysterbar.com","hasMenu":true,"menu":{"type":"Menu","label":"Menu","anchor":"View Menu","url":"https:\/\/foursquare.com\/v\/island-creek-oyster-bar\/4cb12fa2c5e6a1cd90fedbf6\/menu","mobileUrl":"https:\/\/foursquare.com\/v\/4cb12fa2c5e6a1cd90fedbf6\/device_menu"},"allowMenuUrlEdit":true,"beenHere":{"lastCheckinExpiredAt":0},"specials":{"count":0,"items":[]},"venuePage":{"id":"45589336"},"referralId":"v-1519095716","venueChains":[],"hasPerk":false},{"id":"4dd177b8d164679b8d479c91","name":"Area Four","contact":{"phone":"6177584444","formattedPhone":"(617) 758-4444","twitter":"area_four","instagram":"areafour","facebook":"209076662459254","facebookUsername":"areafourcambridge","facebookName":"Area Four"},"location":{"address":"500 Technology Sq","crossStreet":"at Portland St & Main St","lat":42.363073,"lng":-71.0924589,"labeledLatLngs":[{"label":"display","lat":42.363073,"lng":-71.0924589}],"distance":3567,"postalCode":"02139","cc":"US","city":"Cambridge","state":"MA","country":"United States","formattedAddress":["500 Technology Sq (at Portland St & Main St)","Cambridge, MA 02139","United States"]},"categories":[{"id":"4bf58dd8d48988d1ca941735","name":"Pizza Place","pluralName":"Pizza Places","shortName":"Pizza","icon":{"prefix":"https:\/\/ss3.4sqi.net\/img\/categories_v2\/food\/pizza_","suffix":".png"},"primary":true}],"verified":false,"stats":{"checkinsCount":13036,"usersCount":5229,"tipCount":200},"url":"http:\/\/areafour.com","hasMenu":true,"menu":{"type":"Menu","label":"Menu","anchor":"View Menu","url":"https:\/\/foursquare.com\/v\/area-four\/4dd177b8d164679b8d479c91\/menu","mobileUrl":"https:\/\/foursquare.com\/v\/4dd177b8d164679b8d479c91\/device_menu","externalUrl":"http:\/\/www.listingextensions.com\/f43115baa3\/903032290\/menu"},"allowMenuUrlEdit":true,"beenHere":{"lastCheckinExpiredAt":0},"specials":{"count":0,"items":[]},"referralId":"v-1519095716","venueChains":[],"hasPerk":false},{"id":"5824879fb39f960708175e9a","name":"Caffé Nero","contact":{"phone":"6172458902","formattedPhone":"(617) 245-8902","twitter":"caffenero_us","instagram":"caffenero","facebook":"1383583531887771","facebookUsername":"caffenerous","facebookName":"Caffè Nero"},"location":{"address":"589 Massachusetts Ave","lat":42.36499812836951,"lng":-71.10280837827688,"labeledLatLngs":[{"label":"display","lat":42.36499812836951,"lng":-71.10280837827688}],"distance":4334,"postalCode":"02139","cc":"US","city":"Cambridge","state":"MA","country":"United States","formattedAddress":["589 Massachusetts Ave","Cambridge, MA 02139","United States"]},"categories":[{"id":"4bf58dd8d48988d1e0931735","name":"Coffee Shop","pluralName":"Coffee Shops","shortName":"Coffee Shop","icon":{"prefix":"https:\/\/ss3.4sqi.net\/img\/categories_v2\/food\/coffeeshop_","suffix":".png"},"primary":true}],"verified":false,"stats":{"checkinsCount":755,"usersCount":389,"tipCount":12},"url":"https:\/\/caffenero.com\/us\/en\/","menu":{"type":"Menu","label":"Menu","anchor":"View Menu","url":"https:\/\/caffenero.com\/us\/en\/menu\/coffee\/coffee\/","mobileUrl":"https:\/\/caffenero.com\/us\/en\/menu\/coffee\/coffee\/","externalUrl":"https:\/\/caffenero.com\/us\/en\/menu\/coffee\/coffee\/"},"allowMenuUrlEdit":true,"beenHere":{"lastCheckinExpiredAt":0},"specials":{"count":0,"items":[]},"referralId":"v-1519095716","venueChains":[{"id":"55693a3aacea5b47744bc044"}],"hasPerk":false},{"id":"4150c080f964a520091d1fe3","name":"Trident Booksellers & Cafe","contact":{"phone":"6172678688","formattedPhone":"(617) 267-8688","twitter":"tridentbooks","instagram":"tridentbooks","facebook":"136147095244","facebookUsername":"tridentbookscafe","facebookName":"Trident Booksellers and Cafe"},"location":{"address":"338 Newbury St","crossStreet":"btwn Hereford St & Mass Ave","lat":42.348496,"lng":-71.086753,"labeledLatLngs":[{"label":"display","lat":42.348496,"lng":-71.086753}],"distance":4004,"postalCode":"02115","cc":"US","city":"Boston","state":"MA","country":"United States","formattedAddress":["338 Newbury St (btwn Hereford St & Mass Ave)","Boston, MA 02115","United States"]},"categories":[{"id":"4bf58dd8d48988d114951735","name":"Bookstore","pluralName":"Bookstores","shortName":"Bookstore","icon":{"prefix":"https:\/\/ss3.4sqi.net\/img\/categories_v2\/shops\/bookstore_","suffix":".png"},"primary":true}],"verified":true,"stats":{"checkinsCount":19560,"usersCount":9997,"tipCount":303},"url":"http:\/\/tridentbookscafe.com","hasMenu":true,"delivery":{"id":"68664","url":"https:\/\/www.grubhub.com\/restaurant\/trident-booksellers-and-cafe-338-newbury-st-boston\/68664?affiliate=1131&utm_source=foursquare-affiliate-network&utm_medium=affiliate&utm_campaign=1131&utm_content=68664","provider":{"name":"grubhub","icon":{"prefix":"https:\/\/igx.4sqi.net\/img\/general\/cap\/","sizes":[40,50],"name":"\/delivery_provider_grubhub_20180129.png"}}},"menu":{"type":"Products","label":"Products","anchor":"View Products","url":"https:\/\/foursquare.com\/v\/trident-booksellers--cafe\/4150c080f964a520091d1fe3\/menu","mobileUrl":"https:\/\/foursquare.com\/v\/4150c080f964a520091d1fe3\/device_menu","externalUrl":"https:\/\/www.tridentbookscafe.com\/menu"},"allowMenuUrlEdit":true,"beenHere":{"lastCheckinExpiredAt":0},"specials":{"count":0,"items":[]},"venuePage":{"id":"76195218"},"referralId":"v-1519095716","venueChains":[],"hasPerk":false},{"id":"5845b87a7d0f6d56909b6076","name":"Caffè Nero Burnham","contact":{},"location":{"address":"10 Summer St","crossStreet":"Hawley St.","lat":42.35520420713844,"lng":-71.05986296034516,"labeledLatLngs":[{"label":"display","lat":42.35520420713844,"lng":-71.05986296034516}],"distance":2115,"postalCode":"02110","cc":"US","city":"Boston","state":"MA","country":"United States","formattedAddress":["10 Summer St (Hawley St.)","Boston, MA 02110","United States"]},"categories":[{"id":"4bf58dd8d48988d16d941735","name":"Café","pluralName":"Cafés","shortName":"Café","icon":{"prefix":"https:\/\/ss3.4sqi.net\/img\/categories_v2\/food\/cafe_","suffix":".png"},"primary":true}],"verified":false,"stats":{"checkinsCount":1097,"usersCount":628,"tipCount":7},"allowMenuUrlEdit":true,"beenHere":{"lastCheckinExpiredAt":0},"specials":{"count":0,"items":[]},"referralId":"v-1519095716","venueChains":[],"hasPerk":false},{"id":"4b12b3aef964a5207d8c23e3","name":"Nespresso Boutique Bar, Boston","contact":{"phone":"6176082108","formattedPhone":"(617) 608-2108","twitter":"nespressousa","facebook":"28939438344","facebookUsername":"nespresso","facebookName":"Nespresso"},"location":{"address":"7 Newbury St","lat":42.35253788634749,"lng":-71.07170325431522,"labeledLatLngs":[{"label":"display","lat":42.35253788634749,"lng":-71.07170325431522}],"distance":2841,"postalCode":"02116","cc":"US","city":"Boston","state":"MA","country":"United States","formattedAddress":["7 Newbury St","Boston, MA 02116","United States"]},"categories":[{"id":"4bf58dd8d48988d1e0931735","name":"Coffee Shop","pluralName":"Coffee Shops","shortName":"Coffee Shop","icon":{"prefix":"https:\/\/ss3.4sqi.net\/img\/categories_v2\/food\/coffeeshop_","suffix":".png"},"primary":true}],"verified":true,"stats":{"checkinsCount":3648,"usersCount":1657,"tipCount":34},"url":"http:\/\/www.nespresso.com","menu":{"type":"Menu","label":"Menu","anchor":"View Menu","url":"http:\/\/www.listingextensions.com\/f43115baa3\/1716858316\/menu","mobileUrl":"http:\/\/www.listingextensions.com\/f43115baa3\/1716858316\/menu","externalUrl":"http:\/\/www.listingextensions.com\/f43115baa3\/1716858316\/menu"},"allowMenuUrlEdit":true,"beenHere":{"lastCheckinExpiredAt":0},"specials":{"count":0,"items":[]},"storeId":"Boston-Newbury St","referralId":"v-1519095716","venueChains":[{"id":"556c8e00a7c8a11a36bcd553"}],"hasPerk":false},{"id":"542c624f498e1f13d647e9f4","name":"Boston Common Coffee Company","contact":{},"location":{"address":"2004 Canal St","lat":42.36492648758363,"lng":-71.06032062277299,"labeledLatLngs":[{"label":"display","lat":42.36492648758363,"lng":-71.06032062277299}],"distance":1177,"cc":"US","city":"Boston","state":"MA","country":"United States","formattedAddress":["2004 Canal St","Boston, MA","United States"]},"categories":[{"id":"4bf58dd8d48988d1e0931735","name":"Coffee Shop","pluralName":"Coffee Shops","shortName":"Coffee Shop","icon":{"prefix":"https:\/\/ss3.4sqi.net\/img\/categories_v2\/food\/coffeeshop_","suffix":".png"},"primary":true}],"verified":false,"stats":{"checkinsCount":1759,"usersCount":309,"tipCount":4},"url":"http:\/\/bostoncommoncoffee.com","allowMenuUrlEdit":true,"beenHere":{"lastCheckinExpiredAt":0},"specials":{"count":0,"items":[]},"referralId":"v-1519095716","venueChains":[],"hasPerk":false},{"id":"54f799d3498eae1662b1b24e","name":"Tatte Bakery & Cafe","contact":{"twitter":"tattebakery"},"location":{"address":"70 Charles St","lat":42.35790379803664,"lng":-71.07043940890395,"labeledLatLngs":[{"label":"display","lat":42.35790379803664,"lng":-71.07043940890395}],"distance":2314,"postalCode":"02114","cc":"US","city":"Boston","state":"MA","country":"United States","formattedAddress":["70 Charles St","Boston, MA 02114","United States"]},"categories":[{"id":"4bf58dd8d48988d16a941735","name":"Bakery","pluralName":"Bakeries","shortName":"Bakery","icon":{"prefix":"https:\/\/ss3.4sqi.net\/img\/categories_v2\/food\/bakery_","suffix":".png"},"primary":true}],"verified":false,"stats":{"checkinsCount":2950,"usersCount":1768,"tipCount":59},"url":"http:\/\/tattebakery.com","allowMenuUrlEdit":true,"beenHere":{"lastCheckinExpiredAt":0},"specials":{"count":0,"items":[]},"referralId":"v-1519095716","venueChains":[],"hasPerk":false},{"id":"54f20238498eeb7366fc3207","name":"Shake Shack","contact":{"phone":"6179335050","formattedPhone":"(617) 933-5050","twitter":"shakeshack","facebook":"124653650181","facebookUsername":"shakeshack","facebookName":"Shake Shack"},"location":{"address":"236 Newbury St","lat":42.349784616590725,"lng":-71.08166339865778,"labeledLatLngs":[{"label":"display","lat":42.349784616590725,"lng":-71.08166339865778}],"distance":3605,"postalCode":"02116","cc":"US","city":"Boston","state":"MA","country":"United States","formattedAddress":["236 Newbury St","Boston, MA 02116","United States"]},"categories":[{"id":"4bf58dd8d48988d16c941735","name":"Burger Joint","pluralName":"Burger Joints","shortName":"Burgers","icon":{"prefix":"https:\/\/ss3.4sqi.net\/img\/categories_v2\/food\/burger_","suffix":".png"},"primary":true}],"verified":true,"stats":{"checkinsCount":4479,"usersCount":2648,"tipCount":53},"url":"http:\/\/www.shakeshack.com","menu":{"type":"Menu","label":"Menu","anchor":"View Menu","url":"http:\/\/shakeshack.com\/location\/newbury-street-boston-ma\/","mobileUrl":"http:\/\/shakeshack.com\/location\/newbury-street-boston-ma\/","externalUrl":"http:\/\/shakeshack.com\/location\/newbury-street-boston-ma\/"},"allowMenuUrlEdit":true,"beenHere":{"lastCheckinExpiredAt":0},"specials":{"count":0,"items":[]},"referralId":"v-1519095716","venueChains":[{"id":"5569f96da7c8896abe7d2328"}],"hasPerk":false},{"id":"4db5bd326a23c31a0330cf01","name":"The Salty Pig","contact":{"phone":"6175366200","formattedPhone":"(617) 536-6200","twitter":"SaltyPigBoston","facebook":"210331968992157","facebookUsername":"thesaltypig","facebookName":"The Salty Pig"},"location":{"address":"130 Dartmouth St","crossStreet":"btwn Columbus & Stuart","lat":42.34722302512599,"lng":-71.07610221915654,"labeledLatLngs":[{"label":"display","lat":42.34722302512599,"lng":-71.07610221915654}],"distance":3533,"postalCode":"02116","cc":"US","city":"Boston","state":"MA","country":"United States","formattedAddress":["130 Dartmouth St (btwn Columbus & Stuart)","Boston, MA 02116","United States"]},"categories":[{"id":"4bf58dd8d48988d157941735","name":"New American Restaurant","pluralName":"New American Restaurants","shortName":"New American","icon":{"prefix":"https:\/\/ss3.4sqi.net\/img\/categories_v2\/food\/newamerican_","suffix":".png"},"primary":true}],"verified":false,"stats":{"checkinsCount":11668,"usersCount":6271,"tipCount":113},"url":"http:\/\/thesaltypig.com","hasMenu":true,"menu":{"type":"Menu","label":"Menu","anchor":"View Menu","url":"https:\/\/foursquare.com\/v\/the-salty-pig\/4db5bd326a23c31a0330cf01\/menu","mobileUrl":"https:\/\/foursquare.com\/v\/4db5bd326a23c31a0330cf01\/device_menu","externalUrl":"http:\/\/fgfdg"},"allowMenuUrlEdit":true,"beenHere":{"lastCheckinExpiredAt":0},"specials":{"count":0,"items":[]},"referralId":"v-1519095716","venueChains":[],"hasPerk":false},{"id":"560d8c06498e79986a22ca43","name":"Yvonne's","contact":{"phone":"6172670047","formattedPhone":"(617) 267-0047","twitter":"yvonnesboston"},"location":{"address":"2 Winter Place","crossStreet":"Winter + Tremont","lat":42.355664233287655,"lng":-71.06146632268391,"labeledLatLngs":[{"label":"display","lat":42.355664233287655,"lng":-71.06146632268391}],"distance":2116,"postalCode":"02108","cc":"US","city":"Boston","state":"MA","country":"United States","formattedAddress":["2 Winter Place (Winter + Tremont)","Boston, MA 02108","United States"]},"categories":[{"id":"4bf58dd8d48988d157941735","name":"New American Restaurant","pluralName":"New American Restaurants","shortName":"New American","icon":{"prefix":"https:\/\/ss3.4sqi.net\/img\/categories_v2\/food\/newamerican_","suffix":".png"},"primary":true}],"verified":false,"stats":{"checkinsCount":2367,"usersCount":1674,"tipCount":54},"url":"http:\/\/yvonnesboston.com","allowMenuUrlEdit":true,"beenHere":{"lastCheckinExpiredAt":0},"specials":{"count":0,"items":[]},"referralId":"v-1519095716","venueChains":[],"hasPerk":false},{"id":"4aa84188f964a5206e5020e3","name":"Starbucks","contact":{"phone":"6175366501","formattedPhone":"(617) 536-6501","twitter":"starbucks","instagram":"starbucks","facebook":"22092443056","facebookUsername":"Starbucks","facebookName":"Starbucks"},"location":{"address":"273 Huntington Ave","crossStreet":"btwn Massachusetts Ave & Gainsborough St","lat":42.342014,"lng":-71.08618,"labeledLatLngs":[{"label":"display","lat":42.342014,"lng":-71.08618}],"distance":4498,"postalCode":"02115","cc":"US","city":"Boston","state":"MA","country":"United States","formattedAddress":["273 Huntington Ave (btwn Massachusetts Ave & Gainsborough St)","Boston, MA 02115","United States"]},"categories":[{"id":"4bf58dd8d48988d1e0931735","name":"Coffee Shop","pluralName":"Coffee Shops","shortName":"Coffee Shop","icon":{"prefix":"https:\/\/ss3.4sqi.net\/img\/categories_v2\/food\/coffeeshop_","suffix":".png"},"primary":true}],"verified":true,"stats":{"checkinsCount":11894,"usersCount":2402,"tipCount":46},"url":"http:\/\/www.starbucks.com\/store\/14267\/","menu":{"type":"Menu","label":"Menu","anchor":"View Menu","url":"http:\/\/www.starbucks.com\/menu","mobileUrl":"http:\/\/www.starbucks.com\/menu","externalUrl":"http:\/\/www.starbucks.com\/menu"},"allowMenuUrlEdit":true,"beenHere":{"lastCheckinExpiredAt":0},"specials":{"count":0,"items":[]},"storeId":"2767","referralId":"v-1519095716","venueChains":[{"id":"556f676fbd6a75a99038d8ec"}],"hasPerk":false},{"id":"3fd66200f964a52044ec1ee3","name":"The Paramount","contact":{"phone":"6177201152","formattedPhone":"(617) 720-1152","twitter":"Paramount44"},"location":{"address":"44 Charles St","crossStreet":"btwn Chestnut & Mt. Vernon","lat":42.35725611789737,"lng":-71.0700174585143,"labeledLatLngs":[{"label":"display","lat":42.35725611789737,"lng":-71.0700174585143}],"distance":2344,"postalCode":"02114","cc":"US","city":"Boston","state":"MA","country":"United States","formattedAddress":["44 Charles St (btwn Chestnut & Mt. Vernon)","Boston, MA 02114","United States"]},"categories":[{"id":"4bf58dd8d48988d143941735","name":"Breakfast Spot","pluralName":"Breakfast Spots","shortName":"Breakfast","icon":{"prefix":"https:\/\/ss3.4sqi.net\/img\/categories_v2\/food\/breakfast_","suffix":".png"},"primary":true}],"verified":false,"stats":{"checkinsCount":9732,"usersCount":6654,"tipCount":239},"url":"http:\/\/www.paramountboston.com","menu":{"type":"Menu","label":"Menu","anchor":"View Menu","url":"http:\/\/www.paramountboston.com\/beaconhill\/menu","mobileUrl":"http:\/\/www.paramountboston.com\/beaconhill\/menu","externalUrl":"http:\/\/www.paramountboston.com\/beaconhill\/menu"},"allowMenuUrlEdit":true,"beenHere":{"lastCheckinExpiredAt":0},"specials":{"count":0,"items":[]},"referralId":"v-1519095716","venueChains":[],"hasPerk":false},{"id":"3fd66200f964a52062ec1ee3","name":"Top of the Hub","contact":{"phone":"6175361775","formattedPhone":"(617) 536-1775","twitter":"topofthehub52","facebook":"133233290035325","facebookUsername":"topofthehubboston","facebookName":"Top of the Hub"},"location":{"address":"800 Boylston St","crossStreet":"btwn Gloucester & Fairfield St","lat":42.34707903469073,"lng":-71.08237712147746,"labeledLatLngs":[{"label":"display","lat":42.34707903469073,"lng":-71.08237712147746}],"distance":3866,"postalCode":"02199","cc":"US","city":"Boston","state":"MA","country":"United States","formattedAddress":["800 Boylston St (btwn Gloucester & Fairfield St)","Boston, MA 02199","United States"]},"categories":[{"id":"4bf58dd8d48988d14e941735","name":"American Restaurant","pluralName":"American Restaurants","shortName":"American","icon":{"prefix":"https:\/\/ss3.4sqi.net\/img\/categories_v2\/food\/default_","suffix":".png"},"primary":true}],"verified":false,"stats":{"checkinsCount":18553,"usersCount":12881,"tipCount":204},"url":"http:\/\/www.topofthehub.net","hasMenu":true,"menu":{"type":"Menu","label":"Menu","anchor":"View Menu","url":"https:\/\/foursquare.com\/v\/top-of-the-hub\/3fd66200f964a52062ec1ee3\/menu","mobileUrl":"https:\/\/foursquare.com\/v\/3fd66200f964a52062ec1ee3\/device_menu","externalUrl":"http:\/\/topofthehub.net\/menus\/"},"allowMenuUrlEdit":true,"beenHere":{"lastCheckinExpiredAt":0},"specials":{"count":0,"items":[]},"referralId":"v-1519095716","venueChains":[],"hasPerk":false},{"id":"4afd89c6f964a520692822e3","name":"Lord Hobo","contact":{"phone":"6172508454","formattedPhone":"(617) 250-8454","twitter":"lordhobobar"},"location":{"address":"92 Hampshire St","crossStreet":"at Windsor St","lat":42.3687837051547,"lng":-71.09484453587869,"labeledLatLngs":[{"label":"display","lat":42.3687837051547,"lng":-71.09484453587869}],"distance":3616,"postalCode":"02139","cc":"US","city":"Cambridge","state":"MA","country":"United States","formattedAddress":["92 Hampshire St (at Windsor St)","Cambridge, MA 02139","United States"]},"categories":[{"id":"4bf58dd8d48988d155941735","name":"Gastropub","pluralName":"Gastropubs","shortName":"Gastropub","icon":{"prefix":"https:\/\/ss3.4sqi.net\/img\/categories_v2\/food\/gastropub_","suffix":".png"},"primary":true}],"verified":true,"stats":{"checkinsCount":13118,"usersCount":5598,"tipCount":116},"url":"http:\/\/lordhobo.com","hasMenu":true,"menu":{"type":"Menu","label":"Menu","anchor":"View Menu","url":"https:\/\/foursquare.com\/v\/lord-hobo\/4afd89c6f964a520692822e3\/menu","mobileUrl":"https:\/\/foursquare.com\/v\/4afd89c6f964a520692822e3\/device_menu"},"allowMenuUrlEdit":true,"beenHere":{"lastCheckinExpiredAt":0},"specials":{"count":1,"items":[{"id":"5960012d86f4cc508f0aad6b","type":"frequency","message":"Every Tuesday, our mayor gets a free order of tacos.","photo":{"id":"5960012d920ffa62f638fb99","createdAt":1499463981,"prefix":"https:\/\/igx.4sqi.net\/img\/general\/","suffix":"\/90900998_IRYCmbp5VOK7qG2J3EtV2Vhz1eXQa0uAJj3PxomBiOo.jpg","width":640,"height":640,"visibility":"public"},"description":"","finePrint":"One order comprised of two tacos (choice of filling) and a side.  If you're the mayor, present your phone to server for verification.","unlocked":true,"icon":"default","title":"Special","state":"unlocked","provider":"foursquare","redemption":"webview","interaction":{"entryUrl":"https:\/\/foursquare.com\/device\/specials\/5960012d86f4cc508f0aad6b?venueId=4afd89c6f964a520692822e3"},"page":{"id":"90900998","firstName":"Lord Hobo","gender":"none","photo":{"prefix":"https:\/\/igx.4sqi.net\/img\/user\/","suffix":"\/90900998-LSCX1M3P1EAV5HVK.png"},"type":"venuePage","venue":{"id":"4afd89c6f964a520692822e3"},"tips":{"count":1},"lists":{"groups":[{"type":"created","count":2,"items":[]}]},"homeCity":"Cambridge, MA","bio":"","contact":{}}}]},"venuePage":{"id":"90900998"},"referralId":"v-1519095716","venueChains":[],"hasPerk":false},{"id":"49c031c5f964a52052551fe3","name":"1369 Coffee House","contact":{"phone":"6175764600","formattedPhone":"(617) 576-4600","twitter":"1369coffeehouse"},"location":{"address":"757 Massachusetts Ave","crossStreet":"Inman St","lat":42.36649794737513,"lng":-71.10539510236657,"labeledLatLngs":[{"label":"display","lat":42.36649794737513,"lng":-71.10539510236657}],"distance":4512,"postalCode":"02139","cc":"US","city":"Cambridge","state":"MA","country":"United States","formattedAddress":["757 Massachusetts Ave (Inman St)","Cambridge, MA 02139","United States"]},"categories":[{"id":"4bf58dd8d48988d1e0931735","name":"Coffee Shop","pluralName":"Coffee Shops","shortName":"Coffee Shop","icon":{"prefix":"https:\/\/ss3.4sqi.net\/img\/categories_v2\/food\/coffeeshop_","suffix":".png"},"primary":true}],"verified":true,"stats":{"checkinsCount":10132,"usersCount":2956,"tipCount":92},"url":"http:\/\/1369coffeehouse.com","hasMenu":true,"menu":{"type":"Menu","label":"Menu","anchor":"View Menu","url":"https:\/\/foursquare.com\/v\/1369-coffee-house\/49c031c5f964a52052551fe3\/menu","mobileUrl":"https:\/\/foursquare.com\/v\/49c031c5f964a52052551fe3\/device_menu"},"allowMenuUrlEdit":true,"beenHere":{"lastCheckinExpiredAt":0},"specials":{"count":0,"items":[]},"referralId":"v-1519095716","venueChains":[],"hasPerk":false},{"id":"4cff6944f7b38cfa5108c9c3","name":"Lolita Cocina & Tequila Bar","contact":{"phone":"6173695609","formattedPhone":"(617) 369-5609","twitter":"lolitaboston","facebook":"150598008292583","facebookUsername":"lolitamexicanboston","facebookName":"Lolita Cocina & Tequila Bar Back Bay"},"location":{"address":"271 Dartmouth St","crossStreet":"btwn Boylston & Newbury","lat":42.350586,"lng":-71.077539,"labeledLatLngs":[{"label":"display","lat":42.350586,"lng":-71.077539}],"distance":3310,"postalCode":"02116","cc":"US","city":"Boston","state":"MA","country":"United States","formattedAddress":["271 Dartmouth St (btwn Boylston & Newbury)","Boston, MA 02116","United States"]},"categories":[{"id":"4bf58dd8d48988d1c1941735","name":"Mexican Restaurant","pluralName":"Mexican Restaurants","shortName":"Mexican","icon":{"prefix":"https:\/\/ss3.4sqi.net\/img\/categories_v2\/food\/mexican_","suffix":".png"},"primary":true}],"verified":true,"stats":{"checkinsCount":12850,"usersCount":7936,"tipCount":168},"url":"https:\/\/www.lolitatequilabars.com","hasMenu":true,"menu":{"type":"Menu","label":"Menu","anchor":"View Menu","url":"https:\/\/foursquare.com\/v\/lolita-cocina--tequila-bar\/4cff6944f7b38cfa5108c9c3\/menu","mobileUrl":"https:\/\/foursquare.com\/v\/4cff6944f7b38cfa5108c9c3\/device_menu"},"allowMenuUrlEdit":true,"beenHere":{"lastCheckinExpiredAt":0},"specials":{"count":0,"items":[]},"venuePage":{"id":"55587827"},"referralId":"v-1519095716","venueChains":[],"hasPerk":false},{"id":"4a9699adf964a5205e2620e3","name":"James Hook & Company","contact":{"phone":"6174235501","formattedPhone":"(617) 423-5501","twitter":"jameshookco","facebook":"137507462960897","facebookUsername":"JamesHookLobster","facebookName":"James Hook and Company"},"location":{"address":"440 Atlantic Ave","crossStreet":"at Seaport Blvd","lat":42.354959987121205,"lng":-71.0509107842607,"labeledLatLngs":[{"label":"display","lat":42.354959987121205,"lng":-71.0509107842607}],"distance":2021,"postalCode":"02210","cc":"US","city":"Boston","state":"MA","country":"United States","formattedAddress":["440 Atlantic Ave (at Seaport Blvd)","Boston, MA 02210","United States"]},"categories":[{"id":"4bf58dd8d48988d1ce941735","name":"Seafood Restaurant","pluralName":"Seafood Restaurants","shortName":"Seafood","icon":{"prefix":"https:\/\/ss3.4sqi.net\/img\/categories_v2\/food\/seafood_","suffix":".png"},"primary":true}],"verified":true,"stats":{"checkinsCount":3768,"usersCount":3108,"tipCount":73},"url":"http:\/\/jameshooklobster-hub.com","menu":{"type":"Menu","label":"Menu","anchor":"View Menu","url":"http:\/\/www.jameshooklobster.com\/index.php?main_page=page&id=11","mobileUrl":"http:\/\/www.jameshooklobster.com\/index.php?main_page=page&id=11","externalUrl":"http:\/\/www.jameshooklobster.com\/index.php?main_page=page&id=11"},"allowMenuUrlEdit":true,"beenHere":{"lastCheckinExpiredAt":0},"specials":{"count":0,"items":[]},"venuePage":{"id":"80151762"},"storeId":"","referralId":"v-1519095716","venueChains":[],"hasPerk":false},{"id":"577e590a498ea3e75f555c50","name":"Dig Inn","contact":{"phone":"6179043711","formattedPhone":"(617) 904-3711","twitter":"diginn","facebook":"158613407523269","facebookUsername":"diginnmarket","facebookName":"Dig Inn"},"location":{"address":"557 Boylston St","lat":42.35042319986244,"lng":-71.07608824024311,"labeledLatLngs":[{"label":"display","lat":42.35042319986244,"lng":-71.07608824024311}],"distance":3248,"postalCode":"02116","cc":"US","city":"Boston","state":"MA","country":"United States","formattedAddress":["557 Boylston St","Boston, MA 02116","United States"]},"categories":[{"id":"4bf58dd8d48988d1c4941735","name":"Restaurant","pluralName":"Restaurants","shortName":"Restaurant","icon":{"prefix":"https:\/\/ss3.4sqi.net\/img\/categories_v2\/food\/default_","suffix":".png"},"primary":true}],"verified":true,"stats":{"checkinsCount":2153,"usersCount":809,"tipCount":25},"url":"https:\/\/www.diginn.com","allowMenuUrlEdit":true,"beenHere":{"lastCheckinExpiredAt":0},"specials":{"count":0,"items":[]},"referralId":"v-1519095716","venueChains":[],"hasPerk":false},{"id":"4c50b891875fef3b93dd6dd1","name":"Tasty Burger","contact":{"phone":"6174254444","formattedPhone":"(617) 425-4444","twitter":"tastyburgerusa"},"location":{"address":"1301 Boylston St","crossStreet":"at Yawkey Way","lat":42.344752,"lng":-71.098283,"labeledLatLngs":[{"label":"display","lat":42.344752,"lng":-71.098283}],"distance":4993,"postalCode":"02215","cc":"US","city":"Boston","state":"MA","country":"United States","formattedAddress":["1301 Boylston St (at Yawkey Way)","Boston, MA 02215","United States"]},"categories":[{"id":"4bf58dd8d48988d16c941735","name":"Burger Joint","pluralName":"Burger Joints","shortName":"Burgers","icon":{"prefix":"https:\/\/ss3.4sqi.net\/img\/categories_v2\/food\/burger_","suffix":".png"},"primary":true}],"verified":true,"stats":{"checkinsCount":20755,"usersCount":8725,"tipCount":225},"url":"http:\/\/www.tastyburger.com","hasMenu":true,"menu":{"type":"Menu","label":"Menu","anchor":"View Menu","url":"https:\/\/foursquare.com\/v\/tasty-burger\/4c50b891875fef3b93dd6dd1\/menu","mobileUrl":"https:\/\/foursquare.com\/v\/4c50b891875fef3b93dd6dd1\/device_menu"},"allowMenuUrlEdit":true,"beenHere":{"lastCheckinExpiredAt":0},"specials":{"count":0,"items":[]},"referralId":"v-1519095716","venueChains":[],"hasPerk":false},{"id":"52a9e5c611d272d34c168c68","name":"Clover Food Lab KND","contact":{"twitter":"cloverknd"},"location":{"address":"5 Cambridge Ctr","crossStreet":"at Dock St","lat":42.36255507491542,"lng":-71.08725928427994,"labeledLatLngs":[{"label":"display","lat":42.36255507491542,"lng":-71.08725928427994}],"distance":3185,"postalCode":"02142","cc":"US","city":"Cambridge","state":"MA","country":"United States","formattedAddress":["5 Cambridge Ctr (at Dock St)","Cambridge, MA 02142","United States"]},"categories":[{"id":"4bf58dd8d48988d1d3941735","name":"Vegetarian \/ Vegan Restaurant","pluralName":"Vegetarian \/ Vegan Restaurants","shortName":"Vegetarian \/ Vegan","icon":{"prefix":"https:\/\/ss3.4sqi.net\/img\/categories_v2\/food\/vegetarian_","suffix":".png"},"primary":true}],"verified":false,"stats":{"checkinsCount":3507,"usersCount":1355,"tipCount":46},"url":"http:\/\/cloverfoodlab.com","allowMenuUrlEdit":true,"beenHere":{"lastCheckinExpiredAt":0},"specials":{"count":0,"items":[]},"referralId":"v-1519095716","venueChains":[],"hasPerk":false},{"id":"49d67623f964a520d25c1fe3","name":"Beehive","contact":{"phone":"6174230069","formattedPhone":"(617) 423-0069","twitter":"BostonBeehive"},"location":{"address":"541 Tremont St","crossStreet":"btwn Hanson & Milford","lat":42.34433603568153,"lng":-71.0714903172068,"labeledLatLngs":[{"label":"display","lat":42.34433603568153,"lng":-71.0714903172068}],"distance":3610,"postalCode":"02116","cc":"US","city":"Boston","state":"MA","country":"United States","formattedAddress":["541 Tremont St (btwn Hanson & Milford)","Boston, MA 02116","United States"]},"categories":[{"id":"4bf58dd8d48988d14e941735","name":"American Restaurant","pluralName":"American Restaurants","shortName":"American","icon":{"prefix":"https:\/\/ss3.4sqi.net\/img\/categories_v2\/food\/default_","suffix":".png"},"primary":true}],"verified":true,"stats":{"checkinsCount":19161,"usersCount":11797,"tipCount":244},"url":"http:\/\/www.beehiveboston.com\/","hasMenu":true,"menu":{"type":"Menu","label":"Menu","anchor":"View Menu","url":"https:\/\/foursquare.com\/v\/beehive\/49d67623f964a520d25c1fe3\/menu","mobileUrl":"https:\/\/foursquare.com\/v\/49d67623f964a520d25c1fe3\/device_menu"},"allowMenuUrlEdit":true,"beenHere":{"lastCheckinExpiredAt":0},"specials":{"count":0,"items":[]},"venuePage":{"id":"91984492"},"referralId":"v-1519095716","venueChains":[],"hasPerk":false},{"id":"49fef982f964a520bf6f1fe3","name":"South End Buttery","contact":{"phone":"6174821015","formattedPhone":"(617) 482-1015","twitter":"southendbuttery"},"location":{"address":"314 Shawmut Ave","crossStreet":"at Union Park St.","lat":42.342165346977396,"lng":-71.07052512539505,"labeledLatLngs":[{"label":"display","lat":42.342165346977396,"lng":-71.07052512539505}],"distance":3792,"postalCode":"02118","cc":"US","city":"Boston","state":"MA","country":"United States","formattedAddress":["314 Shawmut Ave (at Union Park St.)","Boston, MA 02118","United States"]},"categories":[{"id":"4bf58dd8d48988d16d941735","name":"Café","pluralName":"Cafés","shortName":"Café","icon":{"prefix":"https:\/\/ss3.4sqi.net\/img\/categories_v2\/food\/cafe_","suffix":".png"},"primary":true}],"verified":false,"stats":{"checkinsCount":16673,"usersCount":5345,"tipCount":162},"url":"http:\/\/www.southendbuttery.com","hasMenu":true,"menu":{"type":"Menu","label":"Menu","anchor":"View Menu","url":"https:\/\/foursquare.com\/v\/south-end-buttery\/49fef982f964a520bf6f1fe3\/menu","mobileUrl":"https:\/\/foursquare.com\/v\/49fef982f964a520bf6f1fe3\/device_menu"},"allowMenuUrlEdit":true,"beenHere":{"lastCheckinExpiredAt":0},"specials":{"count":0,"items":[]},"referralId":"v-1519095716","venueChains":[],"hasPerk":false}]}}